stop_id,stop_code,stop_name,stop_desc,stop_lat,stop_lon,stop_url,location_type,parent_station,stop_IBNR
241960,,WIELICZKA RYNEK-KOPALNIA,,49.985686,20.056641,,,,3363
80440,,WIELICZKA PARK,,49.9890933,20.0494485,,,,3323
242822,,WIELICZKA BOGUCICE,,49.9984505,20.0366077,,,,3364
79954,,KRAKÓW BIEŻANÓW DROŻDŻOWNIA,,50.0101025,20.0353932,,,,3123
79947,,KRAKÓW BIEŻANÓW,,50.0212218,20.0296782,,,,3124
79210,,KRAKÓW PROKOCIM,,50.0265037,19.9989288,,,,3135